{
	"status": 0,
	"message": "ok",
	"detail": {
		"count": 33,
		"data": [{
			"adcode": 120111,
			"address": "天津市西青区中北大道",
			"city": "天津市",
			"create_time": 1581276453,
			"update_time": 1581422131,
			"district": "西青区",
			"id": "5e405d250694684b2f9e8ad1",
			"location": {
				"lat": 39.123312,
				"lng": 117.092957
			},
			"province": "天津市",
			"title": "中北镇溪秀苑小区",
			"distance": 7051,
			"gate_status": -1,
			"stay": 1,
			"live": -1,
			"source": "天津政务网",
			"warning": "",
			"date": 1581091200,
			"url": "https://mp.weixin.qq.com/s/8mqBRaf-seOwmjHN9w39WA"
		}, {
			"adcode": 120110,
			"address": "天津市东丽区夏湖路",
			"city": "天津市",
			"create_time": 1581276583,
			"update_time": 1581424490,
			"district": "东丽区",
			"id": "5e405da70694684b2f9ea9e7",
			"location": {
				"lat": 39.174884,
				"lng": 117.502647
			},
			"province": "天津市",
			"title": "揽湖苑别墅",
			"distance": 42713,
			"gate_status": -1,
			"stay": 1,
			"live": -1,
			"source": "天津市东丽区人民政府官方微博",
			"warning": "",
			"date": 1580572800,
			"url": "https://m.weibo.cn/3262767890/4467549171384922"
		}, {
			"adcode": 120115,
			"address": "天津市宝坻区",
			"city": "天津市",
			"create_time": 1581276582,
			"update_time": 1581424488,
			"district": "宝坻区",
			"id": "5e405da6ec437557a8c06131",
			"location": {
				"lat": 39.506301,
				"lng": 117.346933
			},
			"province": "天津市",
			"title": "周良街道田家桥村",
			"distance": 51186,
			"gate_status": -1,
			"stay": 1,
			"live": -1,
			"source": "中共天津市宝坻区委宣传部",
			"warning": "",
			"date": 1580659200,
			"url": "https://mp.weixin.qq.com/s/5t9PIc0xDOMZ7456DAXfvQ"
		}, {
			"adcode": 120116,
			"address": "天津市滨海新区谐海路",
			"city": "天津市",
			"create_time": 1581276555,
			"update_time": 1581424297,
			"district": "滨海新区",
			"id": "5e405d8bf0ce065451a9e857",
			"location": {
				"lat": 39.062401,
				"lng": 117.645761
			},
			"province": "天津市",
			"title": "万通上北新新家园",
			"distance": 55211,
			"gate_status": -1,
			"stay": 1,
			"live": -1,
			"source": "天津市人民政府新闻办公室官方微博",
			"warning": "",
			"date": 1581004800,
			"url": "https://m.weibo.cn/2489610225/4469331120948871"
		}, {
			"adcode": 120115,
			"address": "天津市宝坻区S326",
			"city": "天津市",
			"create_time": 1581276581,
			"update_time": 1581424475,
			"district": "宝坻区",
			"id": "5e405da520f53c1f658c44f7",
			"location": {
				"lat": 39.590953,
				"lng": 117.259814
			},
			"province": "天津市",
			"title": "大口屯镇古庄村",
			"distance": 55920,
			"gate_status": -1,
			"stay": 1,
			"live": -1,
			"source": "中共天津市宝坻区委宣传部",
			"warning": "",
			"date": 1580745600,
			"url": "https://mp.weixin.qq.com/s/jbnKnIWPdM8o3Xj0pOcEsA"
		}, {
			"adcode": 120115,
			"address": "天津市宝坻区菜芽庄桥",
			"city": "天津市",
			"create_time": 1581276555,
			"update_time": 1581424298,
			"district": "宝坻区",
			"id": "5e405d8bf0ce065451a9e85d",
			"location": {
				"lat": 39.60422,
				"lng": 117.373447
			},
			"province": "天津市",
			"title": "郝各庄镇菜芽庄村",
			"distance": 61599,
			"gate_status": -1,
			"stay": 1,
			"live": -1,
			"source": "中共天津市宝坻区委宣传部",
			"warning": "",
			"date": 1581004800,
			"url": "https://mp.weixin.qq.com/s/O0WTwV052DXXr4Onj60cQg"
		}, {
			"adcode": 120116,
			"address": "天津市滨海新区动漫东路",
			"city": "天津市",
			"create_time": 1581276583,
			"update_time": 1581424491,
			"district": "滨海新区",
			"id": "5e405da71d1ec5307cb48509",
			"location": {
				"lat": 39.125217,
				"lng": 117.74044
			},
			"province": "天津市",
			"title": "中新天津生态城",
			"distance": 62896,
			"gate_status": -1,
			"stay": 1,
			"live": -1,
			"source": "天津市人民政府新闻办公室官方微博",
			"warning": "",
			"date": 1580313600,
			"url": "https://m.weibo.cn/2489610225/4466553757941532"
		}, {
			"adcode": 120115,
			"address": "天津市宝坻区朝霞路",
			"city": "天津市",
			"create_time": 1581276460,
			"update_time": 1581422178,
			"district": "宝坻区",
			"id": "5e405d2cec437557a8c0491f",
			"location": {
				"lat": 39.693072,
				"lng": 117.27596
			},
			"province": "天津市",
			"title": "宝平街道宝境檀香小区",
			"distance": 67008,
			"gate_status": -1,
			"stay": 1,
			"live": -1,
			"source": "中共天津市宝坻区委宣传部",
			"warning": "",
			"date": 1581004800,
			"url": "https://mp.weixin.qq.com/s/O0WTwV052DXXr4Onj60cQg"
		}, {
			"adcode": 120115,
			"address": "天津市宝坻区广阳路",
			"city": "天津市",
			"create_time": 1581276555,
			"update_time": 1581424291,
			"district": "宝坻区",
			"id": "5e405d8b0694684b2f9ea032",
			"location": {
				"lat": 39.696957,
				"lng": 117.270968
			},
			"province": "天津市",
			"title": "宝平街道安田心屿小区",
			"distance": 67271,
			"gate_status": -1,
			"stay": 1,
			"live": -1,
			"source": "中共天津市宝坻区委宣传部",
			"warning": "",
			"date": 1581004800,
			"url": "https://mp.weixin.qq.com/s/O0WTwV052DXXr4Onj60cQg"
		}, {
			"adcode": 120115,
			"address": "天津市宝坻区光华路",
			"city": "天津市",
			"create_time": 1581276460,
			"update_time": 1581422177,
			"district": "宝坻区",
			"id": "5e405d2c792dfa7d0748488d",
			"location": {
				"lat": 39.695434,
				"lng": 117.297869
			},
			"province": "天津市",
			"title": "宝平街道凯旋家园小区",
			"distance": 67915,
			"gate_status": -1,
			"stay": 1,
			"live": -1,
			"source": "宝坻区新型冠状病毒感染的肺炎疫情防控工作指挥部办公室",
			"warning": "",
			"date": 1581091200,
			"url": "https://mp.weixin.qq.com/s/S6ryp96tRzqjI_O-wup-wA"
		}, {
			"adcode": 120115,
			"address": "天津市宝坻区平宝线",
			"city": "天津市",
			"create_time": 1581276555,
			"update_time": 1581424294,
			"district": "宝坻区",
			"id": "5e405d8bec437557a8c05bf4",
			"location": {
				"lat": 39.701559,
				"lng": 117.28941
			},
			"province": "天津市",
			"title": "宝平街道河景嘉园小区",
			"distance": 68292,
			"gate_status": -1,
			"stay": 1,
			"live": -1,
			"source": "中共天津市宝坻区委宣传部",
			"warning": "",
			"date": 1581004800,
			"url": "https://mp.weixin.qq.com/s/O0WTwV052DXXr4Onj60cQg"
		}, {
			"adcode": 120115,
			"address": "天津市宝坻区平宝线",
			"city": "天津市",
			"create_time": 1581276582,
			"update_time": 1581424485,
			"district": "宝坻区",
			"id": "5e405da620f53c1f658c44fd",
			"location": {
				"lat": 39.702447,
				"lng": 117.289402
			},
			"province": "天津市",
			"title": "宝平街道河景馨园小区",
			"distance": 68384,
			"gate_status": -1,
			"stay": 1,
			"live": -1,
			"source": "中共天津市宝坻区委宣传部",
			"warning": "",
			"date": 1580659200,
			"url": "https://mp.weixin.qq.com/s/8yH3kzEDNpNqV70G-cd69Q"
		}, {
			"adcode": 120115,
			"address": "天津市宝坻区环城南路",
			"city": "天津市",
			"create_time": 1581276453,
			"update_time": 1581422133,
			"district": "宝坻区",
			"id": "5e405d2520f53c1f658c3048",
			"location": {
				"lat": 39.706013,
				"lng": 117.30025800000001
			},
			"province": "天津市",
			"title": "宝平街道逸城雅园小区",
			"distance": 69085,
			"gate_status": -1,
			"stay": 1,
			"live": -1,
			"source": "宝坻区新型冠状病毒感染的肺炎疫情防控工作指挥部办公室",
			"warning": "",
			"date": 1581177600,
			"url": "https://mp.weixin.qq.com/s/r6bo6-nG3JopIrkxV-fRKg"
		}, {
			"adcode": 120115,
			"address": "天津市宝坻区环城南路",
			"city": "天津市",
			"create_time": 1581276582,
			"update_time": 1581424486,
			"district": "宝坻区",
			"id": "5e405da6792dfa7d07485c3a",
			"location": {
				"lat": 39.707592,
				"lng": 117.295171
			},
			"province": "天津市",
			"title": "宝平街道宝平景苑东区",
			"distance": 69093,
			"gate_status": -1,
			"stay": 1,
			"live": -1,
			"source": "中共天津市宝坻区委宣传部",
			"warning": "",
			"date": 1580659200,
			"url": "https://mp.weixin.qq.com/s/8yH3kzEDNpNqV70G-cd69Q"
		}, {
			"adcode": 120115,
			"address": "天津市宝坻区",
			"city": "天津市",
			"create_time": 1581276554,
			"update_time": 1581424289,
			"district": "宝坻区",
			"id": "5e405d8aec437557a8c05bc1",
			"location": {
				"lat": 39.671803,
				"lng": 117.40009800000001
			},
			"province": "天津市",
			"title": "口东镇前齐各庄村",
			"distance": 69258,
			"gate_status": -1,
			"stay": 1,
			"live": -1,
			"source": "中共天津市宝坻区委宣传部",
			"warning": "",
			"date": 1580918400,
			"url": "https://mp.weixin.qq.com/s/_j9LvCI4jiWk2_T0LQtQ5g"
		}, {
			"adcode": 120115,
			"address": "天津市宝坻区南三路",
			"city": "天津市",
			"create_time": 1581276459,
			"update_time": 1581422170,
			"district": "宝坻区",
			"id": "5e405d2b1d1ec5307cb46fef",
			"location": {
				"lat": 39.712919,
				"lng": 117.282307
			},
			"province": "天津市",
			"title": "宝平街道蝶恋新园小区",
			"distance": 69269,
			"gate_status": -1,
			"stay": 1,
			"live": -1,
			"source": "宝坻区新型冠状病毒感染的肺炎疫情防控工作指挥部办公室",
			"warning": "",
			"date": 1581091200,
			"url": "https://mp.weixin.qq.com/s/S6ryp96tRzqjI_O-wup-wA"
		}, {
			"adcode": 120115,
			"address": "天津市宝坻区大新路",
			"city": "天津市",
			"create_time": 1581276554,
			"update_time": 1581424289,
			"district": "宝坻区",
			"id": "5e405d8a792dfa7d074857c6",
			"location": {
				"lat": 39.603517,
				"lng": 117.533503
			},
			"province": "天津市",
			"title": "林亭口镇窝贝厂村",
			"distance": 69514,
			"gate_status": -1,
			"stay": 1,
			"live": -1,
			"source": "中共天津市宝坻区委宣传部",
			"warning": "",
			"date": 1580918400,
			"url": "https://mp.weixin.qq.com/s/_j9LvCI4jiWk2_T0LQtQ4g"
		}, {
			"adcode": 120115,
			"address": "天津市宝坻区南关大街",
			"city": "天津市",
			"create_time": 1581276582,
			"update_time": 1581424485,
			"district": "宝坻区",
			"id": "5e405da6792dfa7d07485c34",
			"location": {
				"lat": 39.71052,
				"lng": 117.30585
			},
			"province": "天津市",
			"title": "宝平街道华苑东区",
			"distance": 69726,
			"gate_status": -1,
			"stay": 1,
			"live": -1,
			"source": "中共天津市宝坻区委宣传部",
			"warning": "",
			"date": 1580659200,
			"url": "https://mp.weixin.qq.com/s/loTQtTH0KyUi89JCg6qF4g"
		}, {
			"adcode": 120115,
			"address": "天津市宝坻区陈浦桥",
			"city": "天津市",
			"create_time": 1581276453,
			"update_time": 1581422131,
			"district": "宝坻区",
			"id": "5e405d250694684b2f9e8ace",
			"location": {
				"lat": 39.730466,
				"lng": 117.24442
			},
			"province": "天津市",
			"title": "史各庄镇陈甫村",
			"distance": 70111,
			"gate_status": -1,
			"stay": 1,
			"live": -1,
			"source": "宝坻区新型冠状病毒感染的肺炎疫情防控工作指挥部办公室",
			"warning": "",
			"date": 1581177600,
			"url": "https://mp.weixin.qq.com/s/r6bo6-nG3JopIrkxV-fRKg"
		}, {
			"adcode": 120117,
			"address": "天津市宁河区G112",
			"city": "天津市",
			"create_time": 1581276582,
			"update_time": 1581424489,
			"district": "宁河区",
			"id": "5e405da6ec437557a8c06189",
			"location": {
				"lat": 39.358864,
				"lng": 117.77205300000001
			},
			"province": "天津市",
			"title": "芦台镇王北村",
			"distance": 70437,
			"gate_status": -1,
			"stay": 1,
			"live": -1,
			"source": "天津市宁河区人民政府官方微博",
			"warning": "",
			"date": 1580572800,
			"url": "https://m.weibo.cn/3288836375/4467528383874070"
		}, {
			"adcode": 120115,
			"address": "天津市宝坻区东环路",
			"city": "天津市",
			"create_time": 1581276468,
			"update_time": 1581422247,
			"district": "宝坻区",
			"id": "5e405d34f0ce065451a9d96c",
			"location": {
				"lat": 39.713531,
				"lng": 117.327759
			},
			"province": "天津市",
			"title": "钰华街道顺驰小区",
			"distance": 70739,
			"gate_status": -1,
			"stay": 1,
			"live": -1,
			"source": "宝坻区新型冠状病毒感染的肺炎疫情防控工作指挥部办公室",
			"warning": "",
			"date": 1581091200,
			"url": "https://mp.weixin.qq.com/s/S6ryp96tRzqjI_O-wup-wA"
		}, {
			"adcode": 120115,
			"address": "天津市宝坻区东城南路",
			"city": "天津市",
			"create_time": 1581276554,
			"update_time": 1581424288,
			"district": "宝坻区",
			"id": "5e405d8a20f53c1f658c416c",
			"location": {
				"lat": 39.722373,
				"lng": 117.311241
			},
			"province": "天津市",
			"title": "宝平街道瑞景花园小区",
			"distance": 71121,
			"gate_status": -1,
			"stay": 1,
			"live": -1,
			"source": "中共天津市宝坻区委宣传部",
			"warning": "",
			"date": 1580918400,
			"url": "https://mp.weixin.qq.com/s/_j9LvCI4jiWk2_T0LQtQ6g"
		}, {
			"adcode": 120115,
			"address": "天津市宝坻区",
			"city": "天津市",
			"create_time": 1581276554,
			"update_time": 1581424288,
			"district": "宝坻区",
			"id": "5e405d8a20f53c1f658c4169",
			"location": {
				"lat": 39.735728,
				"lng": 117.287893
			},
			"province": "天津市",
			"title": "朝霞街道状元城小区",
			"distance": 71818,
			"gate_status": -1,
			"stay": 1,
			"live": -1,
			"source": "中共天津市宝坻区委宣传部",
			"warning": "",
			"date": 1580918400,
			"url": "https://mp.weixin.qq.com/s/_j9LvCI4jiWk2_T0LQtQ1g"
		}, {
			"adcode": 120115,
			"address": "天津市宝坻区朝霞街道",
			"city": "天津市",
			"create_time": 1581276501,
			"update_time": 1581423868,
			"district": "宝坻区",
			"id": "5e405d550694684b2f9e961f",
			"location": {
				"lat": 39.733548,
				"lng": 117.298999
			},
			"province": "天津市",
			"title": "开元新居小区",
			"distance": 71912,
			"gate_status": -1,
			"stay": 1,
			"live": -1,
			"source": "中共天津市宝坻区委宣传部",
			"warning": "",
			"date": 1580659200,
			"url": "https://mp.weixin.qq.com/s/5t9PIc0xDOMZ7456DAXfvQ"
		}, {
			"adcode": 120115,
			"address": "天津市宝坻区林海路",
			"city": "天津市",
			"create_time": 1581276582,
			"update_time": 1581424484,
			"district": "宝坻区",
			"id": "5e405da61d1ec5307cb48503",
			"location": {
				"lat": 39.723154,
				"lng": 117.336474
			},
			"province": "天津市",
			"title": "钰华街道凯瑞国际小区",
			"distance": 72014,
			"gate_status": -1,
			"stay": 1,
			"live": -1,
			"source": "中共天津市宝坻区委宣传部",
			"warning": "",
			"date": 1580659200,
			"url": "https://mp.weixin.qq.com/s/9PFt6s9A_mMwdtSi97YXog"
		}, {
			"adcode": 120115,
			"address": "天津市宝坻区北环路",
			"city": "天津市",
			"create_time": 1581276587,
			"update_time": 1581424517,
			"district": "宝坻区",
			"id": "5e405dab20f53c1f658c4668",
			"location": {
				"lat": 39.737956,
				"lng": 117.30419800000001
			},
			"province": "天津市",
			"title": "海滨街道蓝水湾小区",
			"distance": 72526,
			"gate_status": -1,
			"stay": 1,
			"live": -1,
			"source": "天津政务网",
			"warning": "",
			"date": 1580832000,
			"url": "https://mp.weixin.qq.com/s/MCVeDBEpYwgPZEZbP7J_HA"
		}, {
			"adcode": 120117,
			"address": "天津市宁河区光明路",
			"city": "天津市",
			"create_time": 1581276582,
			"update_time": 1581424488,
			"district": "宁河区",
			"id": "5e405da6ec437557a8c06186",
			"location": {
				"lat": 39.351504,
				"lng": 117.80168
			},
			"province": "天津市",
			"title": "运河家园",
			"distance": 72532,
			"gate_status": -1,
			"stay": 1,
			"live": -1,
			"source": "天津市宁河区人民政府官方微博",
			"warning": "",
			"date": 1580572800,
			"url": "https://m.weibo.cn/3288836375/4467453125541937"
		}, {
			"adcode": 120115,
			"address": "天津市宝坻区东环路",
			"city": "天津市",
			"create_time": 1581276582,
			"update_time": 1581424484,
			"district": "宝坻区",
			"id": "5e405da61d1ec5307cb48506",
			"location": {
				"lat": 39.735339,
				"lng": 117.323769
			},
			"province": "天津市",
			"title": "海滨街道宝鑫景苑小区",
			"distance": 72855,
			"gate_status": -1,
			"stay": 1,
			"live": -1,
			"source": "中共天津市宝坻区委宣传部",
			"warning": "",
			"date": 1580659200,
			"url": "https://mp.weixin.qq.com/s/-4ALC_CszdYwm44vxWb33g"
		}, {
			"adcode": 120115,
			"address": "天津市宝坻区北环东路",
			"city": "天津市",
			"create_time": 1581276554,
			"update_time": 1581424289,
			"district": "宝坻区",
			"id": "5e405d8a792dfa7d074857c0",
			"location": {
				"lat": 39.736862,
				"lng": 117.333389
			},
			"province": "天津市",
			"title": "钰华街道金玉四园小区",
			"distance": 73320,
			"gate_status": -1,
			"stay": 1,
			"live": -1,
			"source": "中共天津市宝坻区委宣传部",
			"warning": "",
			"date": 1580918400,
			"url": "https://mp.weixin.qq.com/s/_j9LvCI4jiWk2_T0LQtQ3g"
		}, {
			"adcode": 120115,
			"address": "天津市宝坻区宝中道",
			"city": "天津市",
			"create_time": 1581276587,
			"update_time": 1581424518,
			"district": "宝坻区",
			"id": "5e405dab792dfa7d07485d42",
			"location": {
				"lat": 39.73917,
				"lng": 117.35074
			},
			"province": "天津市",
			"title": "海滨街道御景华城",
			"distance": 74131,
			"gate_status": -1,
			"stay": 1,
			"live": -1,
			"source": "天津政务网",
			"warning": "",
			"date": 1580832000,
			"url": "https://mp.weixin.qq.com/s/MCVeDBEpYwgPZEZbP7J_HA"
		}, {
			"adcode": 120115,
			"address": "天津市宝坻区京沈跨线桥",
			"city": "天津市",
			"create_time": 1581276581,
			"update_time": 1581424480,
			"district": "宝坻区",
			"id": "5e405da5792dfa7d07485c31",
			"location": {
				"lat": 39.779686,
				"lng": 117.28129
			},
			"province": "天津市",
			"title": "牛道口镇焦山寺村",
			"distance": 76272,
			"gate_status": -1,
			"stay": 1,
			"live": -1,
			"source": "中共天津市宝坻区委宣传部",
			"warning": "",
			"date": 1580659200,
			"url": "https://mp.weixin.qq.com/s/loTQtTH0KyUi89JCg6qF4g"
		}, {
			"adcode": 120115,
			"address": "天津市宝坻区",
			"city": "天津市",
			"create_time": 1581276554,
			"update_time": 1581424290,
			"district": "宝坻区",
			"id": "5e405d8af0ce065451a9e854",
			"location": {
				"lat": 39.805466,
				"lng": 117.205608
			},
			"province": "天津市",
			"title": "牛道口镇沟头村",
			"distance": 77350,
			"gate_status": -1,
			"stay": 1,
			"live": -1,
			"source": "中共天津市宝坻区委宣传部",
			"warning": "",
			"date": 1581004800,
			"url": "https://mp.weixin.qq.com/s/O0WTwV052DXXr4Onj60cQg"
		}, {
			"adcode": 120115,
			"address": "天津市宝坻区十支桥",
			"city": "天津市",
			"create_time": 1581276581,
			"update_time": 1581424469,
			"district": "宝坻区",
			"id": "5e405da50694684b2f9ea9cc",
			"location": {
				"lat": 39.687394,
				"lng": 117.577378
			},
			"province": "天津市",
			"title": "大钟庄镇大钟庄村",
			"distance": 79115,
			"gate_status": -1,
			"stay": 1,
			"live": -1,
			"source": "中共天津市宝坻区委宣传部",
			"warning": "",
			"date": 1580745600,
			"url": "https://mp.weixin.qq.com/s/jbnKnIWPdM8o3Xj0pOcEsA"
		}]
	}
}